City_ID,City,Lat,Lng,Max Temp,Humidity,Cloudiness,Wind Speed,Country,Date
0,kushmurun,52.4503,64.6311,66.38,66,10,8.1,KZ,1660163044
1,goma,-1.6792,29.2228,65.34,63,62,2.55,CD,1660163046
2,bluff,-46.6,168.3333,41.68,69,98,8.1,NZ,1660163048
3,ponta do sol,32.6667,-17.1,73.71,77,50,5.91,PT,1660162452
4,busselton,-33.65,115.3333,51.62,80,40,4.56,AU,1660163053
5,teya,60.3778,92.6267,55.6,98,13,2.82,RU,1660162878
6,tasiilaq,65.6145,-37.6368,42.96,78,100,6.22,GL,1660163057
7,ushuaia,-54.8,-68.3,44.22,75,20,3.44,AR,1660163059
8,hobart,-42.8794,147.3294,40.05,87,11,3.0,AU,1660162808
9,bathsheba,13.2167,-59.5167,81.21,83,75,17.27,BB,1660162590
10,punta arenas,-53.15,-70.9167,44.71,76,0,6.91,CL,1660163068
11,saint-philippe,-21.3585,55.7679,65.79,77,55,15.95,RE,1660163070
12,albany,42.6001,-73.9662,80.56,61,17,5.41,US,1660162934
13,khatanga,71.9667,102.5,44.37,74,100,12.37,RU,1660163075
14,provideniya,64.3833,-173.3,50.36,100,75,2.24,RU,1660163077
15,mudgee,-32.5943,149.5871,46.78,96,100,4.52,AU,1660163079
16,rikitea,-23.1203,-134.9692,73.27,75,83,21.23,PF,1660163081
17,faanui,-16.4833,-151.75,76.95,72,0,4.05,PF,1660163084
18,kapaa,22.0752,-159.319,82.11,75,0,17.27,US,1660163086
19,haines junction,60.7522,-137.5108,46.17,94,100,4.29,CA,1660163088
20,upernavik,72.7868,-56.1549,41.04,84,99,9.4,GL,1660163093
21,megali panayia,40.45,23.6833,81.91,37,100,5.86,GR,1660163095
22,lebu,-37.6167,-73.65,51.66,74,1,4.23,CL,1660163097
23,port alfred,-33.5906,26.891,60.1,85,89,6.22,ZA,1660163100
24,ahipara,-35.1667,173.1667,49.93,85,89,7.54,NZ,1660163102
25,qaanaaq,77.484,-69.3632,38.53,63,83,1.99,GL,1660163104
26,geraldton,-28.7667,114.6,41.41,93,0,8.05,AU,1660163107
27,mahebourg,-20.4081,57.7,70.25,72,40,14.97,MU,1660162588
28,iquique,-20.2208,-70.1431,60.84,69,37,2.66,CL,1660163113
29,lisala,2.15,21.5167,74.1,80,88,2.59,CD,1660163115
30,yaritagua,10.08,-69.1261,74.46,78,99,9.46,VE,1660163118
31,bredasdorp,-34.5322,20.0403,52.95,93,100,3.29,ZA,1660163120
32,saint george,37.1041,-113.5841,95.43,34,0,6.91,US,1660163100
33,esperance,-33.8667,121.9,55.98,74,47,18.86,AU,1660163124
34,cidreira,-30.1811,-50.2056,60.37,68,5,9.26,BR,1660163127
35,sala,34.0389,-6.8166,72.28,73,40,4.61,MA,1660163129
36,carnarvon,-24.8667,113.6333,57.36,55,0,17.25,AU,1660163131
37,acari,-15.4311,-74.6158,72.64,53,4,7.9,PE,1660163133
38,talnakh,69.4865,88.3972,49.21,81,100,6.53,RU,1660163136
39,saint anthony,45.0205,-93.218,86.9,47,75,12.66,US,1660163140
40,lasa,46.6166,10.7002,67.37,86,51,1.68,IT,1660162876
41,mataura,-46.1927,168.8643,34.38,95,75,2.59,NZ,1660163145
42,nha trang,12.25,109.1833,80.6,81,100,5.32,VN,1660163147
43,cabo san lucas,22.8909,-109.9124,94.6,66,40,11.5,MX,1660163129
44,butaritari,3.0707,172.7902,81.1,78,75,17.9,KI,1660163151
45,dabrowa tarnowska,50.1746,20.9863,66.69,50,100,8.12,PL,1660163154
46,adrar,20.5022,-10.0711,101.59,12,16,9.44,MR,1660163156
47,nikolskoye,59.7035,30.7861,58.91,77,29,2.19,RU,1660163158
48,cabedelo,-6.9811,-34.8339,79.47,78,5,11.65,BR,1660163161
49,klaksvik,62.2266,-6.589,52.72,83,2,23.04,FO,1660163163
50,mar del plata,-38.0023,-57.5575,57.22,59,0,11.5,AR,1660163166
51,novovasylivka,46.8315,35.7536,81.72,25,100,10.22,UA,1660163173
52,manono,-7.3,27.4167,76.44,24,53,4.52,CD,1660163175
53,zhezkazgan,47.8043,67.7144,65.86,67,53,8.43,KZ,1660163177
54,arraial do cabo,-22.9661,-42.0278,75.06,78,75,3.44,BR,1660163180
55,hilo,19.7297,-155.09,85.28,78,75,4.61,US,1660163182
56,manaus,-3.1019,-60.025,93.7,52,20,9.22,BR,1660163184
57,poso,-1.3959,120.7524,77.63,81,100,3.04,ID,1660163187
58,thompson,55.7435,-97.8558,72.79,31,14,6.2,CA,1660163189
59,ucluelet,48.9329,-125.5528,60.1,92,99,8.61,CA,1660162896
60,puerto ayora,-0.7393,-90.3518,78.76,86,86,8.01,EC,1660163193
61,dikson,73.5069,80.5464,42.35,91,99,8.34,RU,1660163196
62,lawton,34.6087,-98.3903,100.08,38,40,9.22,US,1660163198
63,vardo,70.3705,31.1107,57.18,94,75,11.5,NO,1660163200
64,katsuura,35.1333,140.3,80.55,91,100,12.97,JP,1660163203
65,east london,-33.0153,27.9116,62.58,76,63,4.72,ZA,1660163205
66,isangel,-19.55,169.2667,68.36,62,0,14.85,VU,1660163207
67,jamestown,42.097,-79.2353,80.53,53,100,10.36,US,1660163125
68,pangnirtung,66.1451,-65.7125,47.08,76,86,2.44,CA,1660163211
69,dhidhdhoo,6.8833,73.1,81.0,87,14,16.31,MV,1660162740
70,flin flon,54.7682,-101.865,69.67,37,0,5.95,CA,1660163216
71,avarua,-21.2078,-159.775,75.25,73,20,13.8,CK,1660163220
72,borogontsy,62.6683,131.1683,55.62,96,99,5.75,RU,1660163223
73,lavrentiya,65.5833,-171.0,50.65,71,100,7.63,RU,1660163225
74,karpathos,35.507,27.2132,75.16,88,0,23.02,GR,1660163228
75,gayny,60.3071,54.3241,55.22,99,41,7.27,RU,1660162821
76,oytal,42.9057,73.2697,67.84,54,1,2.55,KZ,1660163232
77,kirakira,-10.4544,161.9205,78.46,86,38,8.81,SB,1660162527
78,lata,40.1629,-8.3327,66.11,83,0,3.69,PT,1660163236
79,tuktoyaktuk,69.4541,-133.0374,46.53,76,100,21.97,CA,1660163239
80,nantucket,41.2835,-70.0995,78.94,80,100,12.66,US,1660163241
81,storslett,69.7678,21.0247,57.2,88,100,1.14,NO,1660163243
82,tiksi,71.6872,128.8694,49.03,88,10,5.44,RU,1660163246
83,atuona,-9.8,-139.0333,77.38,77,7,23.17,PF,1660163248
84,vaini,-21.2,-175.2,78.96,94,40,12.66,TO,1660163252
85,rabo de peixe,37.8,-25.5833,71.11,64,20,10.36,PT,1660163255
86,afantou,36.2935,28.1623,78.82,73,20,12.66,GR,1660163257
87,kumluca,36.3703,30.2869,81.01,73,1,5.41,TR,1660163259
88,aktas,49.7789,72.9608,53.35,90,100,8.9,KZ,1660163262
89,chokurdakh,70.6333,147.9167,57.88,60,44,9.69,RU,1660163056
90,alofi,-19.0595,-169.9187,76.89,83,40,9.22,NU,1660163266
91,guerrero negro,27.9769,-114.0611,84.65,50,54,14.79,MX,1660163268
92,hithadhoo,-0.6,73.0833,82.0,73,42,7.56,MV,1660163271
93,terpezita,44.2833,23.5167,66.4,91,26,2.77,RO,1660163273
94,iwaki,37.05,140.8833,81.77,96,100,7.31,JP,1660163275
95,chuy,-33.6971,-53.4616,53.31,74,0,5.99,UY,1660163282
96,opuwo,-18.0607,13.84,68.29,20,0,4.34,NA,1660163284
97,cherskiy,68.75,161.3,58.01,69,0,2.93,RU,1660163286
98,loule,37.1377,-8.0197,68.32,78,0,11.5,PT,1660163129
99,saskylakh,71.9167,114.0833,45.59,87,46,10.4,RU,1660163293
100,awbari,26.5921,12.7805,89.65,20,0,8.84,LY,1660163296
101,nautla,20.2167,-96.7833,88.63,56,44,13.69,MX,1660163298
102,yellowknife,62.456,-114.3525,66.97,54,100,13.24,CA,1660163073
103,north bend,43.4065,-124.2243,77.23,56,0,9.22,US,1660163303
104,atar,20.5169,-13.0499,100.58,8,29,10.04,MR,1660163305
105,alexandria,31.2156,29.9553,79.34,70,0,7.05,EG,1660163307
106,bandarbeyla,9.4942,50.8122,77.41,81,89,32.44,SO,1660163309
107,iqaluit,63.7506,-68.5145,54.7,66,2,10.0,CA,1660163312
108,vao,-22.6667,167.4833,67.68,56,60,21.54,NC,1660163013
109,new norfolk,-42.7826,147.0587,39.7,80,29,2.75,AU,1660163316
110,san patricio,28.017,-97.5169,99.32,34,11,14.9,US,1660163318
111,reconquista,-29.15,-59.65,60.71,50,100,7.36,AR,1660163321
112,buala,-8.145,159.5921,78.55,82,54,3.85,SB,1660163323
113,takoradi,4.8845,-1.7554,74.25,85,50,9.93,GH,1660163325
114,broken hill,-31.95,141.4333,51.91,73,100,20.8,AU,1660163328
115,vanimo,-2.6741,141.3028,75.61,92,100,4.56,PG,1660163330
116,neuquen,-38.9516,-68.0591,48.09,66,0,8.05,AR,1660163332
117,marburg,50.8167,8.7667,74.19,45,4,5.3,DE,1660163334
118,deer lake,49.1667,-57.4316,71.91,40,0,4.5,CA,1660163337
119,eyl,7.9803,49.8164,77.7,75,99,25.95,SO,1660162871
120,hermanus,-34.4187,19.2345,54.81,88,87,8.7,ZA,1660163341
121,sakaiminato,35.55,133.2333,80.58,89,75,3.44,JP,1660163344
122,lovozero,68.005,35.0117,56.43,82,100,9.62,RU,1660163346
123,kaitangata,-46.2817,169.8464,36.52,87,97,0.72,NZ,1660163349
124,dingle,10.9995,122.6711,75.33,89,99,1.52,PH,1660163351
125,coquimbo,-29.9533,-71.3436,60.53,72,0,10.36,CL,1660163353
126,bressanone,46.715,11.656,74.97,79,91,1.12,IT,1660163355
127,mapiripan,2.8892,-72.1256,82.45,81,63,4.14,CO,1660163358
128,severo-kurilsk,50.6789,156.125,54.99,94,54,10.42,RU,1660163360
129,myitkyina,25.3833,97.4,75.96,92,69,0.51,MM,1660163362
130,kangaatsiaq,68.3065,-53.4641,40.35,97,100,11.68,GL,1660163365
131,nouakchott,18.0858,-15.9785,82.33,82,66,15.48,MR,1660163367
132,ridgecrest,35.6225,-117.6709,96.66,21,0,5.01,US,1660163369
133,cape town,-33.9258,18.4232,57.11,93,75,4.61,ZA,1660163372
134,barrow,71.2906,-156.7887,46.42,76,100,14.97,US,1660163374
135,shimoda,34.6667,138.95,77.11,82,99,3.06,JP,1660162800
136,lazaro cardenas,17.9583,-102.2,88.48,60,99,9.95,MX,1660162826
137,chimbote,-9.0853,-78.5783,66.25,73,22,10.6,PE,1660163380
138,jiazi,22.8779,116.067,79.18,89,14,7.63,CN,1660163383
139,havelock,34.8791,-76.9013,96.75,71,75,17.27,US,1660163209
140,hazorasp,41.3194,61.0742,69.64,33,0,12.3,UZ,1660163387
141,porto walter,-8.2686,-72.7439,78.44,64,100,5.17,BR,1660163389
142,ramhormoz,31.28,49.6035,104.63,11,0,7.49,IR,1660163392
143,tuatapere,-46.1333,167.6833,34.03,92,21,4.45,NZ,1660163394
144,srednekolymsk,67.45,153.6833,64.49,64,21,5.37,RU,1660163396
145,fare,-16.7,-151.0167,77.07,73,1,9.35,PF,1660162972
146,shache,38.4167,77.2406,77.72,46,83,5.66,CN,1660163401
147,nanortalik,60.1432,-45.2371,44.24,88,92,2.48,GL,1660163403
148,kaeo,-35.1,173.7833,50.32,92,89,9.17,NZ,1660163406
149,havoysund,70.9963,24.6622,55.63,92,100,6.29,NO,1660163413
150,kruisfontein,-34.0033,24.7314,51.89,89,99,5.17,ZA,1660163417
151,rantepao,-2.9701,119.8978,65.82,96,100,1.63,ID,1660163420
152,lagoa,39.05,-27.9833,71.01,71,77,8.12,PT,1660163422
153,nemuro,43.3236,145.575,65.79,98,70,10.31,JP,1660162883
154,flinders,-34.5833,150.8552,55.38,83,85,1.99,AU,1660163427
155,khuzhir,53.1939,107.3397,54.28,84,7,10.74,RU,1660163429
156,la ronge,55.1001,-105.2842,64.44,46,21,7.11,CA,1660163431
157,avera,33.194,-82.5271,89.11,42,98,5.19,US,1660163435
158,bengkulu,-3.8004,102.2655,74.79,88,48,4.05,ID,1660163438
159,chengde,40.9725,117.9361,62.1,91,0,3.31,CN,1660163440
160,den helder,52.9599,4.7593,72.01,82,0,11.01,NL,1660163442
161,arrecife,28.963,-13.5477,73.38,68,20,16.11,ES,1660163445
162,port blair,11.6667,92.75,81.14,80,100,13.29,IN,1660163447
163,nizwa,22.9333,57.5333,91.69,36,100,5.75,OM,1660163449
164,uige,-7.6087,15.0613,69.21,56,25,3.31,AO,1660163452
165,leningradskiy,69.3833,178.4167,44.89,87,75,2.28,RU,1660163454
166,chicama,-7.8447,-79.1469,61.34,69,60,8.72,PE,1660163456
167,xucheng,20.35,110.1288,78.28,89,100,5.79,CN,1660163459
168,kahului,20.8947,-156.47,87.82,63,20,23.02,US,1660162963
169,codrington,-38.2667,141.9667,46.94,93,100,14.5,AU,1660163463
170,antsirabe,-19.85,47.0333,46.2,87,47,6.8,MG,1660163466
171,yar-sale,66.8333,70.8333,47.7,73,14,5.75,RU,1660163468
172,kamenka,51.3223,42.7678,77.72,40,100,10.67,RU,1660163471
173,fairbanks,64.8378,-147.7164,61.02,60,0,3.44,US,1660163445
174,honningsvag,70.9821,25.9704,55.15,94,75,2.3,NO,1660163475
175,vila franca do campo,37.7167,-25.4333,72.01,71,59,7.05,PT,1660163477
176,knoxville,35.9606,-83.9207,75.67,94,100,8.05,US,1660163183
177,pevek,69.7008,170.3133,39.02,93,98,5.32,RU,1660163482
178,port keats,-14.25,129.55,68.77,86,19,3.11,AU,1660163484
179,ribeira grande,38.5167,-28.7,75.6,78,40,4.61,PT,1660163487
180,presidencia roque saenz pena,-26.7852,-60.4388,67.89,34,1,6.26,AR,1660163363
181,ilulissat,69.2167,-51.1,44.62,81,100,6.91,GL,1660163230
182,castro,-24.7911,-50.0119,47.41,91,99,11.59,BR,1660163493
183,jackson,42.4165,-122.8345,84.04,34,0,7.0,US,1660163498
184,mazara del vallo,37.6641,12.588,78.75,72,13,6.26,IT,1660163500
185,astoria,46.1879,-123.8313,67.71,81,100,16.11,US,1660163502
186,bethel,41.3712,-73.414,87.04,54,75,3.44,US,1660163425
187,umuarama,-23.7664,-53.325,51.48,85,94,11.52,BR,1660163506
188,olinda,-8.0089,-34.8553,78.53,69,0,10.36,BR,1660163511
189,kodiak,57.79,-152.4072,56.71,88,100,6.91,US,1660163513
190,burnie,-41.0667,145.9167,49.95,75,100,11.79,AU,1660163516
191,kastamonu,41.5,33.6667,59.23,74,0,4.23,TR,1660163520
192,terrace,54.5163,-128.6035,86.25,35,0,1.1,CA,1660163409
193,torbay,47.6666,-52.7314,59.58,85,100,14.0,CA,1660163525
194,yumen,40.2833,97.2,76.51,34,3,11.97,CN,1660163527
195,fallon,39.4735,-118.7774,90.91,37,40,0.0,US,1660163408
196,sioux lookout,50.1001,-91.917,68.23,44,93,10.51,CA,1660163408
197,dali,25.7,100.1833,63.12,75,37,1.19,CN,1660163534
198,hami,42.8,93.45,89.46,17,26,17.98,CN,1660163536
199,vostok,46.4856,135.8833,55.44,94,55,4.88,RU,1660163539
200,lompoc,34.6391,-120.4579,92.01,65,0,13.8,US,1660163543
201,mangrol,21.1167,70.1167,80.38,91,100,17.9,IN,1660163546
202,kununurra,-15.7667,128.7333,66.18,82,24,4.61,AU,1660163548
203,palaia fokaia,37.72,23.9463,85.84,48,0,18.25,GR,1660163551
204,sainte-rose,16.3324,-61.6979,87.84,66,75,11.5,GP,1660163553
205,georgetown,5.4112,100.3354,80.89,87,20,0.0,MY,1660163319
206,antalaha,-14.9003,50.2788,67.26,79,66,9.78,MG,1660163557
207,predivinsk,57.0669,93.4378,54.99,97,9,1.25,RU,1660163560
208,karlskrona,56.1616,15.5866,61.25,81,6,8.48,SE,1660163562
209,bull savanna,17.8868,-77.5902,84.34,67,33,12.08,JM,1660163564
210,bamiantong,44.9333,130.5333,59.29,85,96,5.97,CN,1660163567
211,amapa,1.0,-52.0,79.93,71,100,2.53,BR,1660163569
212,mendota,36.7536,-120.3816,84.47,18,0,3.13,US,1660163571
213,tabanan,-8.5413,115.1252,77.4,93,41,4.14,ID,1660163574
214,marawi,7.9986,124.2928,67.84,88,60,2.33,PH,1660163576
215,darnah,32.767,22.6367,80.46,63,0,17.2,LY,1660163578
216,kavieng,-2.5744,150.7967,79.47,79,100,1.81,PG,1660163584
217,vila velha,-20.3297,-40.2925,80.55,78,0,20.71,BR,1660163416
218,kumo,10.0447,11.2122,78.12,77,99,7.07,NG,1660163588
219,vagur,61.4732,-6.8119,52.0,86,39,22.19,FO,1660163591
220,wawa,9.9022,4.4192,77.63,78,95,4.29,NG,1660163593
221,phalaborwa,-23.943,31.1411,66.83,49,0,1.9,ZA,1660163595
222,fairview,40.8126,-73.999,89.87,51,75,10.36,US,1660163407
223,zhigansk,66.7697,123.3711,57.72,79,100,8.32,RU,1660163600
224,sur,22.5667,59.5289,88.56,56,100,10.27,OM,1660163602
225,jhang,33.6748,72.6963,88.61,58,0,7.56,PK,1660163605
226,fortuna,40.5982,-124.1573,74.93,69,40,14.97,US,1660163609
227,popondetta,-8.7537,148.2534,73.0,95,100,2.33,PG,1660163611
228,tapes,-30.6733,-51.3958,56.53,80,1,8.1,BR,1660163614
229,quelimane,-17.8786,36.8883,71.55,88,20,5.75,MZ,1660163588
230,juba,4.8517,31.5825,71.2,94,91,2.93,SS,1660163332
231,santa cruz de tenerife,28.4682,-16.2546,75.88,90,75,17.27,ES,1660163431
232,hamilton,39.1834,-84.5333,84.94,72,75,10.36,US,1660163330
233,anadyr,64.75,177.4833,63.1,67,0,11.18,RU,1660163626
234,shenjiamen,29.9576,122.298,81.48,88,47,19.1,CN,1660163628
235,djibo,14.1022,-1.6306,87.44,54,87,10.49,BF,1660163631
236,telega,45.1333,25.7833,61.43,82,64,6.26,RO,1660163633
237,helena,46.5927,-112.0361,92.25,24,0,3.44,US,1660163627
238,zhuhai,22.2769,113.5678,82.18,94,40,16.11,CN,1660163637
239,katherine,-14.4667,132.2667,66.52,68,12,0.0,AU,1660163640
240,kidal,18.4411,1.4078,87.28,43,71,19.46,ML,1660163642
241,itoman,26.1247,127.6694,83.17,83,40,3.44,JP,1660163645
242,raga,8.4596,25.678,70.86,97,100,5.01,SS,1660163647
243,zyryanka,65.75,150.85,66.88,64,99,10.36,RU,1660163649
244,yining,29.0361,114.5636,78.78,72,99,1.97,CN,1660163652
245,sibolga,1.7427,98.7792,75.04,81,64,3.89,ID,1660163654
246,tura,25.5198,90.2201,73.69,90,87,6.67,IN,1660163658
247,port elizabeth,-33.918,25.5701,56.32,91,20,5.75,ZA,1660163661
248,cassilandia,-19.1133,-51.7342,64.69,35,98,11.23,BR,1660163663
249,coihaique,-45.5752,-72.0662,49.95,66,75,6.91,CL,1660163596
250,ardakan,32.31,54.0175,87.26,24,0,6.6,IR,1660163668
251,san andres,12.5847,-81.7006,87.82,74,75,14.97,CO,1660163459
252,roald,62.5833,6.1333,67.15,94,75,28.77,NO,1660163672
253,west mifflin,40.3634,-79.8664,76.75,73,84,1.99,US,1660163571
254,sao joao da barra,-21.6403,-41.0511,78.89,79,100,18.39,BR,1660163676
255,leticia,-4.2153,-69.9406,84.25,70,75,11.5,CO,1660163579
256,bad doberan,54.1071,11.9005,65.93,81,2,8.63,DE,1660163599
257,honiara,-9.4333,159.95,78.89,81,58,3.69,SB,1660163683
258,ambilobe,-13.2,49.05,65.3,75,2,4.16,MG,1660163685
259,kutum,14.2,24.6667,76.03,62,90,3.62,SD,1660163687
260,college,64.8569,-147.8028,61.0,61,40,3.44,US,1660163690
261,bentiu,9.2333,29.8333,74.39,91,100,1.74,SS,1660163692
262,hambantota,6.1241,81.1185,77.32,84,66,17.83,LK,1660163694
263,airai,-8.9266,125.4092,56.79,61,59,2.71,TL,1660163696
264,cockburn town,21.4612,-71.1419,80.56,83,40,12.66,TC,1660163699
265,buraydah,26.326,43.975,100.85,16,33,9.95,SA,1660163701
266,port lincoln,-34.7333,135.8667,49.05,83,40,21.54,AU,1660163708
267,batalha,-9.6778,-37.1247,71.96,79,4,4.5,BR,1660163710
268,cluses,46.0625,6.575,78.53,53,1,4.7,FR,1660163713
269,mumford,5.2618,-0.759,72.93,88,6,11.48,GH,1660163717
270,ust-tsilma,65.441,52.1498,57.76,56,100,2.37,RU,1660163720
271,praya,14.9215,-23.5087,82.94,74,40,12.66,CV,1660163722
272,tigil,57.8,158.6667,55.67,93,100,3.94,RU,1660163724
273,kyaikkami,16.08,97.5675,78.69,85,100,6.22,MM,1660163727
274,kenai,60.5544,-151.2583,62.1,64,0,16.11,US,1660163729
275,maniitsoq,65.4167,-52.9,42.91,89,100,2.3,GL,1660163731
276,alice springs,-23.7,133.8833,56.75,67,100,5.75,AU,1660163734
277,sorong,-0.8833,131.25,77.16,85,28,4.32,ID,1660163736
278,glenwood springs,39.5505,-107.3248,94.06,39,100,0.0,US,1660163507
279,te anau,-45.4167,167.7167,33.3,93,30,1.9,NZ,1660163741
280,san cristobal,7.7669,-72.225,82.58,85,100,5.41,VE,1660163743
281,hua hin,12.5707,99.9588,82.89,93,100,10.78,TH,1660163745
282,enshi,30.3,109.4833,74.82,82,81,0.89,CN,1660163748
283,kysyl-syr,63.8986,122.7617,55.85,93,28,4.7,RU,1660163750
284,nyagan,62.1406,65.3936,58.84,62,74,5.73,RU,1660163753
285,chokwe,-24.5333,32.9833,66.83,76,0,5.79,MZ,1660163755
286,nome,64.5011,-165.4064,50.16,100,100,11.5,US,1660163757
287,juru,5.312,100.4423,80.91,92,20,0.0,MY,1660163759
288,sampit,-2.5333,112.95,75.02,94,100,2.08,ID,1660163762
289,lorengau,-2.0226,147.2712,80.71,80,98,8.46,PG,1660163764
290,westport,41.1415,-73.3579,88.3,61,0,6.91,US,1660163767
291,olafsvik,64.8945,-23.7142,48.33,79,92,7.74,IS,1660163769
292,waingapu,-9.6567,120.2641,74.68,85,20,5.59,ID,1660163772
293,magadan,59.5667,150.8,56.53,90,100,7.67,RU,1660163774
294,kostryzhivka,48.6545,25.7132,62.47,67,100,5.06,UA,1660163776
295,makakilo city,21.3469,-158.0858,84.61,57,100,18.41,US,1660163779
296,akyab,20.15,92.9,77.99,89,85,7.31,MM,1660163781
297,posse,-14.0931,-46.3694,78.89,24,27,1.68,BR,1660163783
298,mascote,-15.5631,-39.3025,71.31,75,1,6.17,BR,1660163786
299,madaba,31.5833,35.6667,73.56,67,0,4.5,JO,1660163788
300,naica,27.85,-105.4833,85.95,31,79,4.47,MX,1660163790
301,keti bandar,24.1447,67.4497,81.97,89,100,10.85,PK,1660163793
302,gourdon,44.75,1.5,72.14,27,0,3.22,FR,1660163795
303,mnogovershinnyy,53.9353,139.9242,52.9,96,100,3.89,RU,1660163801
304,ponta delgada,37.7333,-25.6667,72.32,64,20,10.36,PT,1660163804
305,aklavik,68.2191,-135.0107,58.95,37,24,8.57,CA,1660163564
306,constitucion,-35.3333,-72.4167,54.07,71,0,10.51,CL,1660163790
307,tessalit,20.1986,1.0114,92.68,29,74,10.4,ML,1660163812
308,severo-yeniseyskiy,60.3725,93.0408,51.75,99,25,3.22,RU,1660163815
309,pisco,-13.7,-76.2167,62.65,77,6,10.36,PE,1660163817
310,laguna,38.421,-121.4238,89.35,35,0,10.36,US,1660163819
311,lyndon,38.2567,-85.6016,81.66,89,100,4.61,US,1660163535
312,kupang,-10.1667,123.5833,73.29,83,32,4.5,ID,1660163824
313,mogadishu,2.0371,45.3438,75.92,86,100,18.03,SO,1660163826
314,rawson,-43.3002,-65.1023,54.32,46,100,5.3,AR,1660163833
315,notodden,59.5594,9.2585,67.71,62,4,3.98,NO,1660163835
316,yushala,57.0761,64.2601,62.91,90,14,2.04,RU,1660163838
317,pyu,18.4833,96.4333,73.08,97,90,1.83,MM,1660163840
318,abu kamal,34.4506,40.9171,90.23,26,0,12.37,SY,1660163842
319,singaraja,-8.112,115.0882,77.34,84,30,2.89,ID,1660163844
320,batemans bay,-35.7167,150.1833,52.11,85,100,4.23,AU,1660163847
321,barabai,-2.5833,115.3833,73.29,95,100,1.45,ID,1660163849
322,cumpas,29.9833,-109.7833,92.88,38,32,4.81,MX,1660163851
323,naze,28.3667,129.4833,77.92,77,100,2.3,JP,1660163854
324,ostrovnoy,68.0531,39.5131,58.93,69,100,23.15,RU,1660163856
325,savannah bight,16.45,-85.85,82.42,81,100,21.05,HN,1660163858
326,shelburne,44.0787,-80.2041,81.75,49,0,8.72,CA,1660163861
327,silver city,32.7701,-108.2803,84.16,57,40,6.91,US,1660163863
328,abu samrah,35.3029,37.1841,74.53,70,0,13.58,SY,1660163865
329,bilibino,68.0546,166.4372,64.38,77,20,2.24,RU,1660163867
330,shingu,33.7333,135.9833,79.18,90,100,1.66,JP,1660163870
331,hanna,51.6334,-111.9018,79.86,37,100,7.0,CA,1660163872
332,ketchikan,55.3422,-131.6461,72.07,46,0,16.11,US,1660163874
333,cabatuan,10.8794,122.486,74.89,88,98,0.83,PH,1660163877
334,sao felix do xingu,-6.6447,-51.995,90.39,28,17,1.79,BR,1660163729
335,huarmey,-10.0681,-78.1522,67.57,70,11,9.95,PE,1660163881
336,carutapera,-1.195,-46.02,79.05,81,55,8.23,BR,1660163883
337,sao joaquim,-28.2939,-49.9317,41.29,98,100,6.2,BR,1660163886
338,grand gaube,-20.0064,57.6608,70.38,59,92,15.01,MU,1660163888
339,los llanos de aridane,28.6585,-17.9182,69.55,89,75,14.97,ES,1660163893
340,narsaq,60.9167,-46.05,50.22,85,100,2.68,GL,1660163895
341,ossora,59.2353,163.0719,54.28,94,100,10.89,RU,1660163897
342,bambous virieux,-20.3428,57.7575,70.21,72,40,14.97,MU,1660163900
343,wanxian,30.8039,108.3897,82.0,69,69,3.31,CN,1660163904
344,clyde river,70.4692,-68.5914,42.4,71,99,4.25,CA,1660163906
345,bonito,-21.1211,-56.4819,61.57,55,0,5.59,BR,1660163909
346,trapani,37.8333,12.6667,77.09,78,0,2.3,IT,1660163911
347,kananga,-5.8958,22.4178,75.92,25,35,4.63,CD,1660163913
348,vengerovo,55.6848,76.7471,61.83,94,100,7.58,RU,1660163916
349,bardiyah,31.7561,25.0865,78.01,70,0,17.16,LY,1660163918
350,tairua,-37.0167,175.85,48.87,75,99,10.98,NZ,1660163920
351,ancud,-41.8697,-73.8203,51.22,94,100,15.57,CL,1660163924
352,salisbury,51.0693,-1.7957,77.29,50,0,4.61,GB,1660163815
353,bronnoysund,65.4625,12.1997,57.2,94,75,26.46,NO,1660163930
354,zilupe,56.3862,28.1217,56.17,69,10,1.01,LV,1660163933
355,puerto colombia,10.9878,-74.9547,89.69,78,99,14.65,CO,1660163935
356,canutama,-6.5339,-64.3831,81.43,62,84,4.16,BR,1660163937
357,kitimat,54.0524,-128.6534,89.2,30,0,0.67,CA,1660163772
358,asau,46.4333,26.4,60.28,88,73,5.03,RO,1660163942
359,dmitrov,56.35,37.5167,65.05,71,49,5.48,RU,1660163944
360,daru,-9.0763,143.2092,76.48,86,83,18.57,PG,1660163947
361,longyearbyen,78.2186,15.6401,49.84,71,75,10.36,SJ,1660163949
362,jaciara,-15.9653,-54.9683,67.19,40,98,7.05,BR,1660163952
363,miles city,46.4083,-105.8406,92.37,31,0,11.5,US,1660163954
364,inirida,3.8653,-67.9239,83.57,80,95,3.44,CO,1660163956
365,brae,60.3964,-1.353,56.12,95,100,17.13,GB,1660163959
366,mozarlandia,-14.7447,-50.5706,83.75,28,100,11.18,BR,1660163961
367,bondo,3.8146,23.6866,69.75,94,100,1.88,CD,1660163963
368,ambon,-3.6954,128.1814,75.34,94,40,3.44,ID,1660163966
369,aykhal,66.0,111.5,58.35,81,100,5.41,RU,1660163968
370,ventspils,57.3894,21.5606,53.53,100,0,2.3,LV,1660163970
371,emet,39.343,29.2585,65.86,60,53,5.46,TR,1660163973
372,lebyazhye,55.2689,66.4947,62.35,88,16,5.97,RU,1660163975
373,bealanana,-14.55,48.7333,51.89,92,52,5.53,MG,1660163977
374,shahreza,32.0339,51.8794,76.42,37,67,1.95,IR,1660163981
375,caracuaro,19.0106,-101.1264,87.01,56,90,3.51,MX,1660163984
376,san angelo,31.4638,-100.437,84.6,73,75,13.8,US,1660163986
377,chapais,49.7834,-74.8492,77.22,39,35,11.14,CA,1660163991
378,hamburg,53.55,10.0,67.86,65,0,5.75,DE,1660163995
379,paamiut,61.994,-49.6678,42.84,96,100,7.16,GL,1660163997
380,ust-nera,64.5667,143.2,63.97,74,100,5.21,RU,1660164000
381,muros,42.7762,-9.0603,69.1,90,44,3.15,ES,1660164002
382,sheltozero,61.3667,35.3667,57.56,74,88,9.33,RU,1660164004
383,mount isa,-20.7333,139.5,46.17,61,0,0.0,AU,1660164007
384,montagnana,45.2287,11.4635,78.75,58,8,3.69,IT,1660164009
385,sitka,57.0531,-135.33,58.89,77,100,0.0,US,1660164012
386,ternate,0.8,127.4,79.86,82,35,2.55,ID,1660164014
387,ridge,40.894,-72.8959,85.98,75,75,9.22,US,1660164016
388,itarema,-2.9248,-39.9167,77.65,78,4,17.0,BR,1660164019
389,mahajanga,-15.7167,46.3167,73.42,53,20,13.8,MG,1660164021
390,mount gambier,-37.8333,140.7667,45.73,93,100,9.82,AU,1660164024
391,tocopilla,-22.092,-70.1979,64.81,66,11,3.78,CL,1660164026
392,grindavik,63.8424,-22.4338,50.47,87,75,11.5,IS,1660164031
393,saint-joseph,-21.3667,55.6167,64.78,75,26,14.92,RE,1660164033
394,caravelas,-17.7125,-39.2481,74.32,74,14,14.76,BR,1660164035
395,vestmannaeyjar,63.4427,-20.2734,51.26,82,99,10.56,IS,1660164038
396,luderitz,-26.6481,15.1594,56.55,70,39,11.18,NA,1660164040
397,jaguaribe,-5.8906,-38.6219,83.23,33,5,6.73,BR,1660164042
398,padang,-0.9492,100.3543,77.27,83,15,2.98,ID,1660164044
399,paka,4.6374,103.4368,78.73,94,98,2.3,MY,1660164047
400,kadnikov,59.5022,40.338,52.11,85,4,4.23,RU,1660164049
401,hearst,49.6835,-83.6665,60.96,72,92,9.31,CA,1660164017
402,maumere,-8.6199,122.2111,79.57,79,84,3.53,ID,1660164053
403,voh,-20.9667,164.7,66.99,57,9,9.64,NC,1660164056
404,sabzevar,36.2126,57.6819,78.08,25,0,18.41,IR,1660164058
405,paredon,16.0333,-93.8667,89.11,59,86,3.31,MX,1660164060
406,hasaki,35.7333,140.8333,79.29,90,100,15.14,JP,1660164063
407,rock sound,24.9,-76.2,82.99,74,0,14.25,BS,1660164065
408,chastyye,57.2888,54.9728,61.32,95,51,5.53,RU,1660164067
409,half moon bay,37.4636,-122.4286,85.87,62,0,13.8,US,1660164070
410,zaoyang,32.1272,112.7542,81.39,65,99,8.63,CN,1660164072
411,kaoma,-14.7833,24.8,58.46,32,0,5.7,ZM,1660164074
412,izhma,65.0083,53.9113,56.62,56,100,3.15,RU,1660164077
413,bousse,12.6606,-1.8922,80.24,72,87,8.75,BF,1660164079
414,vrangel,42.7297,133.0839,70.0,94,90,5.12,RU,1660164081
415,axim,4.8699,-2.2405,74.44,86,62,7.36,GH,1660164084
416,sangar,63.9242,127.4739,56.61,82,0,1.41,RU,1660164086
417,garden city,42.3256,-83.331,86.88,47,20,6.91,US,1660163845
418,tomatlan,19.9333,-105.25,89.74,57,84,7.31,MX,1660164092
419,zambezi,-13.5432,23.1047,62.74,18,0,5.73,ZM,1660164095
420,bosaso,11.2842,49.1816,90.73,43,97,14.41,SO,1660164097
421,lubango,-14.9172,13.4925,61.2,31,0,4.16,AO,1660164099
422,churapcha,62.0025,132.4325,56.41,93,100,4.63,RU,1660164102
423,saint-augustin,51.226,-58.6502,65.8,51,0,11.27,CA,1660164104
424,manggar,-2.8833,108.2667,81.93,81,100,10.78,ID,1660164106
425,ranong,9.9658,98.6348,78.39,88,100,9.17,TH,1660164109
426,candeias,-20.7676,-45.2764,56.98,62,83,11.9,BR,1660164111
427,baijiantan,45.6333,85.1833,77.4,43,22,4.43,CN,1660164113
428,souillac,-20.5167,57.5167,66.58,72,40,14.97,MU,1660164116
429,abnub,27.2696,31.1511,86.22,27,0,10.74,EG,1660164118
430,baykit,61.67,96.37,58.82,92,100,3.71,RU,1660164122
431,husavik,66.0449,-17.3389,44.94,87,95,7.61,IS,1660164125
432,mutoko,-17.397,32.2268,58.41,56,0,6.49,ZW,1660164127
433,maroslele,46.2667,20.35,70.74,40,24,13.96,HU,1660164129
434,meulaboh,4.1363,96.1285,76.19,88,67,3.29,ID,1660164132
435,sorland,67.667,12.6934,53.46,90,100,30.62,NO,1660164134
436,lamu,-2.2717,40.902,73.62,86,99,17.76,KE,1660164138
437,shirvan,39.9509,48.8994,78.04,60,0,4.83,AZ,1660164141
438,henties bay,-22.116,14.2845,54.1,91,0,9.01,NA,1660164143
439,panzhihua,26.5851,101.7128,69.69,88,98,2.15,CN,1660163948
440,camopi,3.1655,-52.3158,80.91,72,97,2.44,GF,1660164148
441,black river,18.0264,-77.8487,86.4,68,43,7.87,JM,1660164150
442,douentza,14.9951,-2.9517,90.01,50,89,9.04,ML,1660164152
443,kaffrine,14.1059,-15.5508,83.59,69,87,13.67,SN,1660164155
444,waidhofen,48.5833,11.3333,67.64,45,20,2.3,DE,1660164157
445,siirt,37.9326,41.9403,77.76,32,0,3.98,TR,1660164159
446,la roche-sur-yon,46.6667,-1.4333,80.31,31,0,6.91,FR,1660164162
447,banposh,22.25,84.8,74.16,95,100,5.91,IN,1660164164
448,ozuluama,21.6667,-97.85,91.15,47,9,16.35,MX,1660164166
449,calvinia,-31.4707,19.776,51.17,59,86,3.58,ZA,1660164168
450,batagay,67.6333,134.6333,60.87,64,4,1.54,RU,1660164171
451,charters towers,-20.1,146.2667,54.5,85,2,7.11,AU,1660164068
452,grand-lahou,5.1367,-5.0242,74.82,87,99,11.03,CI,1660164175
453,boyolangu,-8.1181,111.8935,73.99,95,57,3.09,ID,1660164177
454,barahona,18.2085,-71.1008,91.22,62,40,18.41,DO,1660164180
455,ganzhou,28.8184,115.4327,81.77,65,93,3.67,CN,1660163973
456,dire,12.2833,-10.9667,76.08,93,100,2.15,ML,1660164184
457,lakeside,30.13,-81.7682,96.93,55,75,11.5,US,1660164106
458,karratha,-20.7377,116.8463,60.62,29,0,13.15,AU,1660164189
459,berlevag,70.8578,29.0864,58.8,94,75,8.05,NO,1660164192
460,san rafael,-34.6177,-68.3301,60.3,28,0,11.83,AR,1660163980
461,florence,43.7667,11.25,81.73,57,0,5.75,IT,1660163951
462,mandalgovi,45.7625,106.2708,65.23,66,30,8.25,MN,1660164198
463,batsfjord,70.6345,29.7185,58.78,94,100,13.8,NO,1660164200
464,concepcion del uruguay,-32.4825,-58.2372,57.25,60,66,7.11,AR,1660164203
465,touros,-5.1989,-35.4608,75.81,75,5,11.97,BR,1660164205
466,mehamn,71.0357,27.8492,57.15,82,40,9.22,NO,1660164207
467,dungarpur,23.8333,73.7167,77.49,92,100,3.8,IN,1660164209
468,chippewa falls,44.9369,-91.3929,84.72,57,75,8.05,US,1660164133
469,kasempa,-13.4584,25.8338,61.92,31,0,5.28,ZM,1660164214
470,goure,13.9835,10.2704,90.68,36,99,6.35,NE,1660164216
471,okato,-39.2,173.8833,46.51,74,8,11.34,NZ,1660164221
472,cayenne,4.9333,-52.3333,86.04,20,52,3.44,GF,1660164223
473,prince rupert,54.3161,-130.3201,67.66,66,0,5.66,CA,1660164225
474,valdivia,-39.8142,-73.2459,48.29,84,42,2.68,CL,1660164228
475,victoria,22.2855,114.1577,83.32,86,100,11.01,HK,1660164230
476,hofn,64.2539,-15.2082,54.9,64,6,7.02,IS,1660164232
477,yulara,-25.2406,130.9889,50.81,49,100,1.88,AU,1660164236
478,skegness,53.1436,0.3363,68.05,81,9,9.75,GB,1660164239
479,saint-denis,48.9167,2.3333,83.35,37,0,6.91,FR,1660164241
480,palmer,42.1584,-72.3287,85.06,50,75,12.66,US,1660164243
481,moindou,-21.6924,165.677,67.78,61,2,13.78,NC,1660164246
482,camabatela,-8.1881,15.375,65.26,44,28,5.91,AO,1660164249
483,ruteng,-8.6136,120.4721,61.84,94,96,0.74,ID,1660164253
484,kieta,-6.2167,155.6333,80.37,81,95,3.69,PG,1660164255
485,altay,47.8667,88.1167,64.04,56,80,2.44,CN,1660164258
486,riberalta,-10.9833,-66.1,80.8,44,8,13.8,BO,1660164260
487,bad schwalbach,50.1333,8.0667,75.56,38,4,4.9,DE,1660164262
488,san vicente,-26.6167,-54.1333,50.72,87,81,4.0,AR,1660164264
489,baie-comeau,49.2168,-68.1489,65.71,66,0,7.34,CA,1660164267
490,lerwick,60.1545,-1.1494,57.2,95,100,15.7,GB,1660164269
491,goderich,43.7501,-81.7165,75.9,63,0,5.86,CA,1660164271
492,kulhudhuffushi,6.6221,73.07,81.12,85,10,15.75,MV,1660164274
493,auxerre,47.8,3.5667,68.63,29,69,8.68,FR,1660164278
494,quatre cocos,-20.2078,57.7625,70.09,72,94,19.84,MU,1660164280
495,kamyshevatskaya,46.4132,37.9563,83.12,39,78,15.23,RU,1660164283
496,guozhen,34.3659,107.359,76.75,83,49,2.33,CN,1660164285
497,wiarton,44.7407,-81.1332,80.96,58,0,11.3,CA,1660164287
498,pingliang,35.5392,106.6861,71.35,80,92,3.27,CN,1660164289
499,santa maria,-29.6842,-53.8069,60.1,59,75,2.3,BR,1660164292
500,tucuman,-26.8241,-65.2226,68.0,34,9,5.75,AR,1660164163
501,khonsa,27.0167,95.5667,67.59,98,33,3.67,IN,1660164296
502,buritis,-15.6178,-46.4233,84.52,32,97,2.84,BR,1660164298
503,shaki,41.0833,47.1667,74.98,47,0,6.42,AZ,1660164301
504,ugoofaaru,5.6667,73.0,81.43,82,37,14.92,MV,1660164303
505,ilava,48.9977,18.2353,61.66,74,0,5.19,SK,1660164305
506,fort nelson,58.8053,-122.7002,85.87,27,1,2.75,CA,1660164083
507,portobelo,9.55,-79.65,80.96,88,100,5.53,PA,1660164311
508,saldanha,-33.0117,17.9442,57.25,92,100,1.95,ZA,1660164314
509,fort saint james,54.4333,-124.25,85.23,27,0,4.0,CA,1660164316
510,ladario,-19.0047,-57.6017,78.89,43,0,9.22,BR,1660164319
511,itupiranga,-5.1347,-49.3267,97.12,44,7,2.84,BR,1660164216
512,marzuq,14.4,46.4667,80.01,61,88,5.97,YE,1660164325
513,margate,51.3813,1.3862,69.91,87,2,5.01,GB,1660164330
514,sao filipe,14.8961,-24.4956,78.58,87,64,8.1,CV,1660164332
515,aleysk,52.4926,82.7822,64.08,70,100,4.43,RU,1660164334
516,santa rosa de cabal,4.8681,-75.6214,78.42,65,40,5.75,CO,1660164336
517,zernograd,46.8452,40.3083,80.83,41,2,8.68,RU,1660164339
518,agadez,19.75,10.25,96.26,18,57,5.1,NE,1660164343
519,dunedin,-45.8742,170.5036,40.8,83,98,0.67,NZ,1660164345
520,ellisras,-23.6649,27.7443,58.98,41,0,3.76,ZA,1660164348
521,alekseyevskoye,55.3071,50.1135,64.99,91,85,6.2,RU,1660164350
522,conakry,9.538,-13.6773,77.07,100,75,6.91,GN,1660164352
523,barcelona,41.3888,2.159,87.13,65,20,10.36,ES,1660164128
524,tyazhinskiy,56.116,88.524,57.49,85,0,1.72,RU,1660164357
525,kloulklubed,7.0419,134.2556,82.74,73,23,5.23,PW,1660164359
526,charleston,32.7766,-79.9309,92.26,71,0,12.66,US,1660164321
527,port hardy,50.6996,-127.4199,64.11,80,99,6.2,CA,1660164312
528,hanzhong,33.0728,107.0303,75.88,77,29,1.16,CN,1660164366
529,port hawkesbury,45.6169,-61.3485,65.97,95,100,5.99,CA,1660164368
530,at-bashi,41.1702,75.8106,55.47,63,69,2.13,KG,1660164371
531,severnyy-kospashskiy,59.0925,57.8008,61.61,99,100,4.27,RU,1660164373
532,pombas,17.1503,-25.0201,78.58,83,75,13.53,CV,1660164376
533,florianopolis,-27.6146,-48.5012,57.42,94,100,20.71,BR,1660164378
534,nema,57.5067,50.5011,57.58,81,94,4.9,RU,1660164380
535,berbera,10.4396,45.0143,90.97,39,95,21.83,SO,1660164383
536,tahta,26.7693,31.5021,89.35,25,0,14.97,EG,1660164385
537,mirpur sakro,24.5474,67.6277,83.1,84,100,7.76,PK,1660164387
538,surt,31.2089,16.5887,81.54,65,0,10.89,LY,1660164390
539,manta,-0.95,-80.7333,80.38,69,75,6.91,EC,1660164095
540,leirvik,59.7798,5.5005,61.86,87,58,8.25,NO,1660164394
541,santa isabel,-23.3156,-46.2214,62.31,58,6,18.61,BR,1660164396
542,stonewall,50.1344,-97.3268,74.71,39,52,10.83,CA,1660164399
543,manokwari,-0.8667,134.0833,77.38,77,87,4.09,ID,1660164401
544,mineral wells,32.8085,-98.1128,96.19,52,0,0.0,US,1660164110
545,copacabana,6.3463,-75.5089,86.34,35,20,20.71,CO,1660164406
546,mayo,38.8876,-76.5119,93.07,75,100,3.44,US,1660164192
